City_ID,City,Country,Date,Lat,Lng,Max Temp,Humidity,Cloudiness,Wind Speed,Current Description
0,Coihaique,CL,2021-10-12 21:51:27,-45.5752,-72.0662,57.81,50,40,6.91,scattered clouds
1,Ambilobe,MG,2021-10-12 21:41:48,-13.2,49.05,75.18,77,100,1.45,overcast clouds
2,Ushuaia,AR,2021-10-12 21:51:27,-54.8,-68.3,55.06,38,75,18.41,broken clouds
3,Bara,NG,2021-10-12 21:41:49,10.3744,10.7288,78.78,43,72,3.83,broken clouds
4,Christchurch,NZ,2021-10-12 21:40:47,-43.5333,172.6333,45.0,89,75,11.01,moderate rain
5,Cape Town,ZA,2021-10-12 21:47:00,-33.9258,18.4232,64.09,81,20,1.99,few clouds
6,Punta Arenas,CL,2021-10-12 21:51:28,-53.15,-70.9167,57.31,35,75,19.57,broken clouds
7,Ostrovnoy,RU,2021-10-12 21:51:28,68.0531,39.5131,43.74,86,97,19.6,overcast clouds
8,Saskylakh,RU,2021-10-12 21:51:29,71.9167,114.0833,9.23,97,99,4.63,overcast clouds
9,Rikitea,PF,2021-10-12 21:51:29,-23.1203,-134.9692,74.25,74,66,9.8,broken clouds
10,Albany,US,2021-10-12 21:49:56,42.6001,-73.9662,72.01,72,20,3.78,few clouds
11,Shelburne,CA,2021-10-12 21:41:50,44.0787,-80.2041,69.67,72,72,13.09,broken clouds
12,Yellowknife,CA,2021-10-12 21:49:05,62.456,-114.3525,43.41,75,75,14.97,broken clouds
13,Puerto Ayora,EC,2021-10-12 21:51:30,-0.7393,-90.3518,80.56,87,58,8.01,broken clouds
14,Port Alfred,ZA,2021-10-12 21:51:30,-33.5906,26.891,62.29,86,89,1.05,overcast clouds
15,Heishan,CN,2021-10-12 21:41:50,41.6892,122.1128,48.96,82,0,5.93,clear sky
16,Havre-Saint-Pierre,CA,2021-10-12 21:41:51,50.2334,-63.5986,59.59,94,1,6.91,clear sky
17,Saint-Pierre,RE,2021-10-12 21:41:51,-21.3393,55.4781,73.08,94,90,9.22,light rain
18,Chahal,GT,2021-10-12 21:41:52,15.75,-89.5667,90.68,51,17,1.57,few clouds
19,Busselton,AU,2021-10-12 21:51:31,-33.65,115.3333,47.05,86,56,7.25,broken clouds
20,Kedougou,SN,2021-10-12 21:41:52,12.5579,-12.1743,77.58,94,40,9.22,light rain
21,Butaritari,KI,2021-10-12 21:51:32,3.0707,172.7902,81.57,68,41,7.16,scattered clouds
22,Mataura,NZ,2021-10-12 21:51:32,-46.1927,168.8643,42.64,91,100,4.63,overcast clouds
23,Avarua,CK,2021-10-12 21:51:33,-21.2078,-159.775,77.05,69,75,11.5,light rain
24,Souillac,MU,2021-10-12 21:51:33,-20.5167,57.5167,73.78,88,40,3.44,scattered clouds
25,Belmonte,BR,2021-10-12 21:51:33,-15.8631,-38.8828,72.1,91,98,10.09,overcast clouds
26,Nikolskoye,RU,2021-10-12 21:51:34,59.7035,30.7861,42.87,86,92,5.5,overcast clouds
27,Ternate,ID,2021-10-12 21:41:53,0.8,127.4,81.5,80,99,2.95,overcast clouds
28,Hermanus,ZA,2021-10-12 21:51:34,-34.4187,19.2345,62.8,81,94,6.44,overcast clouds
29,Polson,US,2021-10-12 21:41:54,47.6936,-114.1632,49.37,34,1,0.96,clear sky
30,Isangel,VU,2021-10-12 21:51:35,-19.55,169.2667,82.51,69,75,9.22,light rain
31,Albanel,CA,2021-10-12 21:51:35,48.8832,-72.4487,73.54,60,100,3.44,overcast clouds
32,Kapaa,US,2021-10-12 21:51:35,22.0752,-159.319,80.92,78,75,4.0,moderate rain
33,Warwick,US,2021-10-12 21:40:06,41.7001,-71.4162,72.32,76,75,4.61,broken clouds
34,Sangar,RU,2021-10-12 21:41:55,63.9242,127.4739,13.33,92,45,2.82,scattered clouds
35,Saint-Philippe,RE,2021-10-12 21:51:36,-21.3585,55.7679,72.99,88,68,4.63,broken clouds
36,Emerald,AU,2021-10-12 21:41:55,-23.5333,148.1667,71.74,64,1,12.66,clear sky
37,Narsaq,GL,2021-10-12 21:51:36,60.9167,-46.05,36.9,69,4,1.86,clear sky
38,Talaya,RU,2021-10-12 21:41:56,61.3833,152.75,17.15,94,100,1.1,light snow
39,Catamarca,AR,2021-10-12 21:50:53,-28.4696,-65.7852,89.78,48,35,11.01,scattered clouds
40,Komsomolskiy,UZ,2021-10-12 21:51:37,40.4272,71.7189,45.32,70,0,6.91,clear sky
41,Nea Alikarnassos,GR,2021-10-12 21:41:56,35.3333,25.1667,65.62,75,20,6.91,few clouds
42,Faanui,PF,2021-10-12 21:51:37,-16.4833,-151.75,79.88,78,79,11.77,light rain
43,Bredasdorp,ZA,2021-10-12 21:51:38,-34.5322,20.0403,62.28,88,100,3.44,overcast clouds
44,San Quintin,MX,2021-10-12 21:51:38,30.4833,-115.95,66.83,43,0,21.27,clear sky
45,Matamoros,MX,2021-10-12 21:41:57,25.5333,-103.25,93.11,23,46,1.45,scattered clouds
46,Ribeira Grande,PT,2021-10-12 21:51:39,38.5167,-28.7,70.0,69,80,6.69,broken clouds
47,Nantucket,US,2021-10-12 21:39:44,41.2835,-70.0995,68.34,89,74,6.4,broken clouds
48,Holstebro,DK,2021-10-12 21:41:58,56.3601,8.6161,48.99,70,48,7.87,scattered clouds
49,Kahului,US,2021-10-12 21:51:39,20.8947,-156.47,85.26,80,40,20.71,scattered clouds
50,Kilindoni,TZ,2021-10-12 21:41:58,-7.9139,39.6668,77.23,80,58,15.73,broken clouds
51,Sur,OM,2021-10-12 21:51:40,22.5667,59.5289,79.92,51,0,1.25,clear sky
52,Coquimbo,CL,2021-10-12 21:49:08,-29.9533,-71.3436,60.53,58,0,12.66,clear sky
53,Bonavista,CA,2021-10-12 21:51:40,48.6499,-53.1147,49.12,94,100,24.52,light rain
54,Atuona,PF,2021-10-12 21:51:41,-9.8,-139.0333,78.13,73,13,15.52,few clouds
55,Ruhengeri,RW,2021-10-12 21:41:59,-1.4998,29.635,57.02,86,63,1.05,broken clouds
56,Toora-Khem,RU,2021-10-12 21:51:41,52.4675,96.11,29.97,89,100,4.54,overcast clouds
57,Baleshwar,IN,2021-10-12 21:42:00,21.4942,86.9317,78.69,82,93,3.87,overcast clouds
58,Norman Wells,CA,2021-10-12 21:51:42,65.282,-126.8329,33.84,80,90,12.66,overcast clouds
59,Aksu,CN,2021-10-12 21:42:00,41.1231,80.2644,48.22,26,0,5.03,clear sky
60,Kenda,IN,2021-10-12 21:42:01,23.2,86.5333,75.96,77,65,6.31,broken clouds
61,Trabzon,TR,2021-10-12 21:42:01,40.9167,39.8333,57.29,82,0,5.75,clear sky
62,Quatre Cocos,MU,2021-10-12 21:42:02,-20.2078,57.7625,73.51,88,2,3.42,clear sky
63,Mar Del Plata,AR,2021-10-12 21:51:43,-38.0023,-57.5575,60.01,62,90,8.01,mist
64,Castro,BR,2021-10-12 21:48:16,-24.7911,-50.0119,61.45,81,43,3.85,scattered clouds
65,Ahuimanu,US,2021-10-12 21:42:03,21.4447,-157.8378,83.91,70,90,14.97,light rain
66,Vila Franca Do Campo,PT,2021-10-12 21:42:04,37.7167,-25.4333,70.21,88,40,2.75,scattered clouds
67,Jamestown,US,2021-10-12 21:51:43,42.097,-79.2353,74.79,68,90,6.91,overcast clouds
68,Concordia,AR,2021-10-12 21:42:04,-31.393,-58.0209,75.27,60,0,6.91,clear sky
69,Sampit,ID,2021-10-12 21:51:44,-2.5333,112.95,74.88,97,100,1.77,overcast clouds
70,Spoleto,IT,2021-10-12 21:42:05,42.7448,12.7374,54.66,82,35,4.0,scattered clouds
71,New Norfolk,AU,2021-10-12 21:51:44,-42.7826,147.0587,51.93,67,100,1.99,overcast clouds
72,Kjollefjord,NO,2021-10-12 21:42:05,70.9457,27.3465,42.58,81,75,12.66,light rain
73,Severo-Kurilsk,RU,2021-10-12 21:51:45,50.6789,156.125,46.2,80,22,14.5,few clouds
74,Kavaratti,IN,2021-10-12 21:51:45,10.5669,72.642,82.15,81,100,22.59,overcast clouds
75,Bethel,US,2021-10-12 21:42:06,41.3712,-73.414,70.39,77,24,3.2,few clouds
76,Hilo,US,2021-10-12 21:49:49,19.7297,-155.09,77.79,92,90,0.0,moderate rain
77,Nanortalik,GL,2021-10-12 21:51:46,60.1432,-45.2371,39.54,79,3,1.79,clear sky
78,Atar,MR,2021-10-12 21:42:07,20.5169,-13.0499,87.28,17,23,3.87,few clouds
79,Bambous Virieux,MU,2021-10-12 21:51:46,-20.3428,57.7575,73.65,88,40,3.44,scattered clouds
80,Santa Branca,BR,2021-10-12 21:42:07,-23.3967,-45.8839,68.36,72,40,11.5,thunderstorm
81,Lazaro Cardenas,MX,2021-10-12 21:42:08,17.9583,-102.2,84.74,74,25,10.33,scattered clouds
82,Hobart,AU,2021-10-12 21:51:47,-42.8794,147.3294,52.27,71,75,1.01,broken clouds
83,Yanam,IN,2021-10-12 21:51:47,16.7333,82.2167,76.14,95,100,1.95,overcast clouds
84,Verkhnyaya Toyma,RU,2021-10-12 21:42:08,62.2349,44.9985,41.27,89,100,5.59,overcast clouds
85,Prainha,BR,2021-10-12 21:42:09,-1.8,-53.48,87.89,41,12,4.9,few clouds
86,Longyearbyen,SJ,2021-10-12 21:51:48,78.2186,15.6401,28.24,86,75,4.61,light snow
87,Novikovo,RU,2021-10-12 21:42:09,51.1537,37.8879,48.36,83,100,7.07,light rain
88,Galle,LK,2021-10-12 21:42:09,6.0367,80.217,80.17,82,88,14.36,overcast clouds
89,Libertador General San Martin,AR,2021-10-12 21:42:10,-23.8064,-64.7876,89.98,38,46,6.31,scattered clouds
90,Upernavik,GL,2021-10-12 21:51:49,72.7868,-56.1549,35.08,93,99,11.43,overcast clouds
91,Dubrovka,RU,2021-10-12 21:42:10,53.6907,33.5071,46.38,90,100,6.33,moderate rain
92,Kununurra,AU,2021-10-12 21:51:49,-15.7667,128.7333,75.18,94,69,0.0,broken clouds
93,Kaitangata,NZ,2021-10-12 21:42:11,-46.2817,169.8464,44.44,79,100,13.18,overcast clouds
94,Zinder,NE,2021-10-12 21:42:11,13.8072,8.9881,86.67,8,9,8.19,clear sky
95,Knyaginino,RU,2021-10-12 21:42:12,55.8228,45.0349,44.19,58,100,8.01,overcast clouds
96,Tanete,ID,2021-10-12 21:42:12,-3.9443,119.7848,74.91,92,99,3.29,overcast clouds
97,Vardo,NO,2021-10-12 21:51:50,70.3705,31.1107,43.32,77,100,20.54,overcast clouds
98,Pevek,RU,2021-10-12 21:42:13,69.7008,170.3133,15.67,92,98,3.58,overcast clouds
99,Bluff,NZ,2021-10-12 21:51:51,-46.6,168.3333,45.64,73,100,17.05,overcast clouds
100,Fortuna,US,2021-10-12 21:51:51,40.5982,-124.1573,67.19,52,1,5.99,clear sky
101,Sola,VU,2021-10-12 21:42:14,-13.8833,167.55,84.87,84,40,0.0,scattered clouds
102,Yeppoon,AU,2021-10-12 21:51:52,-23.1333,150.7333,76.78,75,1,4.83,clear sky
103,Port Hardy,CA,2021-10-12 21:42:14,50.6996,-127.4199,46.58,87,75,11.5,light rain
104,Provideniya,RU,2021-10-12 21:51:52,64.3833,-173.3,33.91,64,0,15.66,clear sky
105,Kirakira,SB,2021-10-12 21:51:53,-10.4544,161.9205,83.21,72,54,6.38,broken clouds
106,Albesti,RO,2021-10-12 21:42:15,47.7,27.0667,48.61,91,98,6.31,overcast clouds
107,Linxi,CN,2021-10-12 21:42:15,39.7,118.4333,50.72,65,49,1.72,scattered clouds
108,Jutai,BR,2021-10-12 21:42:16,-5.1833,-68.9,80.65,75,91,2.73,overcast clouds
109,Mezen,RU,2021-10-12 21:42:16,65.8522,44.24,37.72,90,5,10.78,clear sky
110,Tabuk,PH,2021-10-12 21:42:16,17.4189,121.4443,74.23,87,100,3.74,overcast clouds
111,Tiarei,PF,2021-10-12 21:42:17,-17.5333,-149.3333,84.22,77,87,16.13,light rain
112,Carnarvon,AU,2021-10-12 21:51:54,-24.8667,113.6333,57.27,62,0,13.8,clear sky
113,Leningradskiy,RU,2021-10-12 21:42:17,69.3833,178.4167,21.83,95,100,5.03,light snow
114,Khatanga,RU,2021-10-12 21:51:54,71.9667,102.5,12.13,96,100,6.82,overcast clouds
115,Pitimbu,BR,2021-10-12 21:51:55,-7.4706,-34.8086,79.39,74,43,9.93,scattered clouds
116,San Patricio,US,2021-10-12 21:51:55,28.017,-97.5169,92.08,63,32,21.18,scattered clouds
117,Lagunas,PE,2021-10-12 21:42:18,-5.2269,-75.6753,83.98,68,99,2.93,moderate rain
118,Bengkulu,ID,2021-10-12 21:51:56,-3.8004,102.2655,75.33,91,98,2.89,light rain
119,Abu Samrah,SY,2021-10-12 21:42:19,35.3029,37.1841,70.99,49,83,10.38,broken clouds
120,Beringovskiy,RU,2021-10-12 21:42:19,63.05,179.3167,19.63,84,53,12.64,broken clouds
121,Puerto Escondido,MX,2021-10-12 21:42:20,15.85,-97.0667,90.43,51,20,9.22,few clouds
122,Saint George,US,2021-10-12 21:48:58,37.1041,-113.5841,56.62,49,90,1.01,overcast clouds
123,Kasane,BW,2021-10-12 21:42:20,-17.8167,25.15,67.08,37,0,5.21,clear sky
124,Lagoa,PT,2021-10-12 21:42:21,39.05,-27.9833,68.9,71,56,7.2,broken clouds
125,Guerrero Negro,MX,2021-10-12 21:51:57,27.9769,-114.0611,70.38,47,0,21.81,clear sky
126,Chuy,UY,2021-10-12 21:51:57,-33.6971,-53.4616,61.61,95,23,6.76,few clouds
127,Opuwo,NA,2021-10-12 21:51:58,-18.0607,13.84,76.51,27,0,3.04,clear sky
128,Guapore,BR,2021-10-12 21:42:22,-28.8456,-51.8903,62.6,92,29,0.25,scattered clouds
129,Kaihua,CN,2021-10-12 21:42:22,23.3687,104.28,54.19,94,87,8.03,overcast clouds
130,Victoria,HK,2021-10-12 21:49:05,22.2855,114.1577,77.32,92,100,1.01,light rain
131,Labuhan,ID,2021-10-12 21:42:23,-6.8844,112.2051,77.04,78,96,10.13,overcast clouds
132,Gisborne,NZ,2021-10-12 21:42:23,-38.6533,178.0042,56.95,41,3,11.68,clear sky
133,Tiksi,RU,2021-10-12 21:51:59,71.6872,128.8694,20.01,92,98,10.07,overcast clouds
134,Maceio,BR,2021-10-12 21:42:00,-9.6658,-35.7353,80.04,78,0,9.22,clear sky
135,Baykit,RU,2021-10-12 21:51:59,61.67,96.37,23.94,75,100,1.41,overcast clouds
136,Bhandaria,BD,2021-10-12 21:42:24,22.4861,90.0609,78.62,80,58,5.19,broken clouds
137,Barrow,US,2021-10-12 21:52:00,71.2906,-156.7887,30.22,80,90,21.85,haze
138,Hirado,JP,2021-10-12 21:42:24,33.3597,129.5531,74.55,88,100,24.79,overcast clouds
139,Araouane,ML,2021-10-12 21:42:25,18.9048,-3.5265,88.59,9,60,6.31,broken clouds
140,Lavrentiya,RU,2021-10-12 21:52:00,65.5833,-171.0,31.19,81,100,11.25,overcast clouds
141,Puerto Cabezas,NI,2021-10-12 21:42:25,14.0351,-83.3888,85.96,79,40,4.61,scattered clouds
142,Port Elizabeth,ZA,2021-10-12 21:52:01,-33.918,25.5701,60.1,100,90,3.44,mist
143,Tautira,PF,2021-10-12 21:52:01,-17.7333,-149.15,84.22,81,99,16.11,light rain
144,Am Timan,TD,2021-10-12 21:42:26,11.0297,20.2827,77.38,70,93,5.99,overcast clouds
145,Cayenne,GF,2021-10-12 21:38:57,4.9333,-52.3333,83.08,81,75,1.99,broken clouds
146,East London,ZA,2021-10-12 21:52:02,-33.0153,27.9116,65.23,81,100,0.85,overcast clouds
147,Mayor Pablo Lagerenza,PY,2021-10-12 21:42:26,-19.9309,-60.7718,87.73,49,96,4.5,overcast clouds
148,Balykshi,KZ,2021-10-12 21:42:27,47.0667,51.8667,51.8,43,0,20.13,clear sky
149,Tuatapere,NZ,2021-10-12 21:52:03,-46.1333,167.6833,45.77,73,98,6.06,overcast clouds
150,Simplicio Mendes,BR,2021-10-12 21:42:27,-7.8539,-41.9103,89.47,26,94,2.62,overcast clouds
151,San Ramon De La Nueva Oran,AR,2021-10-12 21:42:28,-23.1322,-64.326,91.38,35,52,8.01,broken clouds
152,Ati,TD,2021-10-12 21:42:28,13.2154,18.3353,91.24,14,33,9.19,scattered clouds
153,Lompoc,US,2021-10-12 21:52:04,34.6391,-120.4579,76.57,35,1,20.71,smoke
154,Iqaluit,CA,2021-10-12 21:52:04,63.7506,-68.5145,35.33,93,75,25.99,broken clouds
155,Mahibadhoo,MV,2021-10-12 21:42:29,3.7833,72.9667,82.31,76,68,17.27,broken clouds
156,Port Keats,AU,2021-10-12 21:42:29,-14.25,129.55,82.87,70,65,5.68,broken clouds
157,Te Anau,NZ,2021-10-12 21:52:05,-45.4167,167.7167,42.8,80,78,5.1,broken clouds
158,Komatipoort,ZA,2021-10-12 21:42:30,-25.4332,31.9548,70.14,38,39,0.72,scattered clouds
159,Namibe,AO,2021-10-12 21:42:30,-15.1961,12.1522,69.85,85,96,4.38,overcast clouds
160,Ishimbay,RU,2021-10-12 21:42:30,53.4545,56.0415,45.79,68,100,6.06,overcast clouds
161,Mount Gambier,AU,2021-10-12 21:52:05,-37.8333,140.7667,55.31,76,81,19.57,light rain
162,Alta Floresta,BR,2021-10-12 21:42:31,-9.8756,-56.0861,80.49,64,53,1.52,broken clouds
163,Plainfield,US,2021-10-12 21:42:31,40.6168,-74.4173,71.62,76,1,8.05,clear sky
164,Sitka,US,2021-10-12 21:42:32,57.0531,-135.33,48.09,76,90,19.57,moderate rain
165,Dikson,RU,2021-10-12 21:52:06,73.5069,80.5464,28.35,81,91,17.07,overcast clouds
166,Lasa,IT,2021-10-12 21:52:06,46.6166,10.7002,47.28,95,76,5.82,broken clouds
167,Tezu,IN,2021-10-12 21:42:32,27.9167,96.1667,75.15,60,3,3.96,clear sky
168,Oranjemund,NA,2021-10-12 21:42:33,-28.55,16.4333,58.96,75,83,1.95,broken clouds
169,Vaini,TO,2021-10-12 21:52:07,-21.2,-175.2,75.36,73,75,6.91,broken clouds
170,Kigoma,TZ,2021-10-12 21:42:33,-4.8769,29.6267,77.59,56,75,1.9,broken clouds
171,Carauari,BR,2021-10-12 21:52:08,-4.8828,-66.8958,84.07,69,78,2.64,broken clouds
172,Uchiza,PE,2021-10-12 21:42:34,-8.4592,-76.4633,84.42,62,100,0.49,overcast clouds
173,Stokmarknes,NO,2021-10-12 21:42:34,68.5646,14.9108,43.5,78,100,4.25,overcast clouds
174,Hithadhoo,MV,2021-10-12 21:52:08,-0.6,73.0833,82.27,76,100,16.87,overcast clouds
175,Hasaki,JP,2021-10-12 21:52:09,35.7333,140.8333,63.0,87,100,21.74,overcast clouds
176,Dubbo,AU,2021-10-12 21:42:35,-32.25,148.6167,55.53,94,75,13.8,broken clouds
177,Usolye,RU,2021-10-12 21:42:35,59.4268,56.6808,38.84,92,58,3.91,broken clouds
178,Walker,US,2021-10-12 21:42:36,30.7335,-95.5669,91.18,52,40,8.05,scattered clouds
179,Juegang,CN,2021-10-12 21:42:36,32.3174,121.1855,74.91,93,100,12.82,light rain
180,Hualmay,PE,2021-10-12 21:42:36,-11.0964,-77.6139,64.96,79,47,13.58,scattered clouds
181,Kosai,JP,2021-10-12 21:42:37,34.7105,137.5316,73.26,83,100,7.52,overcast clouds
182,Marsabit,KE,2021-10-12 21:42:37,2.3284,37.9899,71.89,43,100,22.95,overcast clouds
183,Houston,US,2021-10-12 21:42:16,29.7633,-95.3633,91.85,70,75,8.99,broken clouds
184,Georgetown,MY,2021-10-12 21:50:04,5.4112,100.3354,82.33,82,20,0.0,few clouds
185,La Ronge,CA,2021-10-12 21:42:38,55.1001,-105.2842,43.05,49,20,4.61,few clouds
186,Tasiilaq,GL,2021-10-12 21:52:10,65.6145,-37.6368,23.11,57,0,2.06,clear sky
187,Zyryanovsk,KZ,2021-10-12 21:42:38,49.7386,84.2719,32.85,91,99,2.77,overcast clouds
188,Qaanaaq,GL,2021-10-12 21:52:10,77.484,-69.3632,28.92,94,99,6.55,overcast clouds
189,Manokwari,ID,2021-10-12 21:42:39,-0.8667,134.0833,80.37,76,68,2.91,broken clouds
190,Solnechnyy,RU,2021-10-12 21:42:39,50.7214,136.6319,42.33,79,100,4.18,overcast clouds
191,Conde,BR,2021-10-12 21:42:40,-7.2597,-34.9075,78.26,78,20,6.91,few clouds
192,Alihe,CN,2021-10-12 21:42:40,50.5667,123.7167,42.42,72,100,2.93,overcast clouds
193,Kavieng,PG,2021-10-12 21:52:11,-2.5744,150.7967,83.57,74,99,15.46,overcast clouds
194,Yar-Sale,RU,2021-10-12 21:52:11,66.8333,70.8333,29.7,96,100,14.67,light snow
195,Tuktoyaktuk,CA,2021-10-12 21:52:12,69.4541,-133.0374,26.6,100,75,13.8,broken clouds
196,Faya,SA,2021-10-12 21:52:12,18.3851,42.4509,63.12,19,32,7.54,scattered clouds
197,Tura,IN,2021-10-12 21:42:41,25.5198,90.2201,73.63,88,37,3.11,scattered clouds
198,Nacala,MZ,2021-10-12 21:42:41,-14.5428,40.6728,71.65,79,2,8.34,clear sky
199,Guangyuan,CN,2021-10-12 21:42:42,32.442,105.823,54.41,94,100,4.03,overcast clouds
200,Mana,GF,2021-10-12 21:42:42,5.6592,-53.7767,81.43,80,53,9.91,broken clouds
201,Talnakh,RU,2021-10-12 21:42:43,69.4865,88.3972,16.16,97,99,4.56,overcast clouds
202,Beroroha,MG,2021-10-12 21:42:43,-21.6667,45.1667,76.66,54,94,2.95,overcast clouds
203,Maiduguri,NG,2021-10-12 21:42:43,11.8464,13.1603,82.11,20,5,2.48,clear sky
204,Leshan,CN,2021-10-12 21:42:44,29.5623,103.7639,60.33,89,100,1.43,overcast clouds
205,Biggar,GB,2021-10-12 21:42:44,55.6167,-3.5167,55.29,97,97,4.07,overcast clouds
206,Vestmannaeyjar,IS,2021-10-12 21:52:14,63.4427,-20.2734,47.97,98,100,13.89,overcast clouds
207,Pitea,SE,2021-10-12 21:42:45,65.3172,21.4794,35.69,86,24,5.08,few clouds
208,Socorro,US,2021-10-12 21:42:45,31.6546,-106.3033,88.81,16,20,24.16,few clouds
209,Vangaindrano,MG,2021-10-12 21:42:46,-23.35,47.6,63.23,81,96,3.15,overcast clouds
210,Mazamari,PE,2021-10-12 21:42:46,-11.3258,-74.5308,89.69,45,54,1.48,broken clouds
211,Whitehills,GB,2021-10-12 21:42:47,57.6667,-2.5833,50.58,91,100,7.96,overcast clouds
212,Chokurdakh,RU,2021-10-12 21:52:15,70.6333,147.9167,15.39,92,100,8.05,overcast clouds
213,Leninskoye,KZ,2021-10-12 21:42:47,41.7589,69.3864,44.53,35,0,3.22,clear sky
214,Fairbanks,US,2021-10-12 21:48:57,64.8378,-147.7164,35.82,74,20,1.01,few clouds
215,Grindavik,IS,2021-10-12 21:42:48,63.8424,-22.4338,49.95,100,90,18.41,fog
216,Batangafo,CF,2021-10-12 21:42:05,7.3008,18.2833,73.71,92,100,4.81,overcast clouds
217,Nara,JP,2021-10-12 21:52:15,34.6851,135.8049,72.72,91,84,1.3,broken clouds
218,Portland,US,2021-10-12 21:52:16,45.5234,-122.6762,56.44,67,75,1.99,broken clouds
219,Mae Hong Son,TH,2021-10-12 21:42:49,19.3003,97.9685,71.42,96,54,1.59,broken clouds
220,Yulara,AU,2021-10-12 21:52:16,-25.2406,130.9889,49.84,32,0,3.44,clear sky
221,Arraial Do Cabo,BR,2021-10-12 21:52:17,-22.9661,-42.0278,66.16,94,75,12.66,light intensity drizzle
222,Tessalit,ML,2021-10-12 21:42:49,20.1986,1.0114,85.71,11,56,9.19,broken clouds
223,Ippy,CF,2021-10-12 21:42:50,6.2679,21.2247,69.53,98,99,2.28,overcast clouds
224,Salinopolis,BR,2021-10-12 21:42:50,-0.6136,-47.3561,81.66,76,10,13.24,clear sky
225,Basco,PH,2021-10-12 21:42:50,20.4487,121.9702,83.23,85,100,21.41,moderate rain
226,Makakilo City,US,2021-10-12 21:48:02,21.3469,-158.0858,82.72,69,90,13.8,overcast clouds
227,Myaundzha,RU,2021-10-12 21:42:51,63.0494,147.1858,16.43,89,100,4.32,overcast clouds
228,Pasinler,TR,2021-10-12 21:42:51,39.9803,41.6764,43.79,30,2,2.84,clear sky
229,The Valley,AI,2021-10-12 21:42:52,18.217,-63.0578,84.34,84,40,17.27,scattered clouds
230,Mayo,US,2021-10-12 21:42:52,38.8876,-76.5119,71.58,86,90,4.0,overcast clouds
231,Mahebourg,MU,2021-10-12 21:52:18,-20.4081,57.7,73.69,88,40,3.44,scattered clouds
232,Kolondieba,ML,2021-10-12 21:42:53,11.0882,-6.8926,78.39,71,21,4.09,light rain
233,Urengoy,RU,2021-10-12 21:42:53,65.9667,78.3667,22.75,84,68,8.55,broken clouds
234,Lamar,US,2021-10-12 21:42:53,33.6668,-95.5836,78.64,77,40,14.97,scattered clouds
235,Axim,GH,2021-10-12 21:42:54,4.8699,-2.2405,78.58,90,45,9.6,scattered clouds
236,Nassau,US,2021-10-12 21:42:54,40.7507,-73.5829,71.28,71,90,1.99,overcast clouds
237,Alice Springs,AU,2021-10-12 21:52:19,-23.7,133.8833,62.15,34,0,9.22,clear sky
238,Ancud,CL,2021-10-12 21:52:19,-41.8697,-73.8203,63.93,81,14,7.9,few clouds
239,Bilibino,RU,2021-10-12 21:42:55,68.0546,166.4372,-2.4,93,14,3.8,few clouds
240,Ponta Do Sol,PT,2021-10-12 21:52:20,32.6667,-17.1,69.71,72,42,1.88,scattered clouds
241,Ahipara,NZ,2021-10-12 21:42:55,-35.1667,173.1667,55.6,69,95,13.73,overcast clouds
242,Lata,PT,2021-10-12 21:52:20,40.1629,-8.3327,64.81,53,0,3.69,clear sky
243,Airai,TL,2021-10-12 21:52:20,-8.9266,125.4092,62.98,75,99,2.24,overcast clouds
244,Dunedin,NZ,2021-10-12 21:42:56,-45.8742,170.5036,45.81,69,100,15.99,overcast clouds
245,Mizdah,LY,2021-10-12 21:42:56,31.4451,12.9801,64.62,42,84,2.86,broken clouds
246,Jishou,CN,2021-10-12 21:42:57,28.3167,109.7167,61.05,74,100,2.55,overcast clouds
247,Bathsheba,BB,2021-10-12 21:42:57,13.2167,-59.5167,83.01,78,75,16.11,broken clouds
248,Deputatskiy,RU,2021-10-12 21:52:21,69.3,139.9,20.71,97,100,3.53,light snow
249,Ambon,ID,2021-10-12 21:42:58,-3.6954,128.1814,77.14,94,40,5.75,scattered clouds
250,Aklavik,CA,2021-10-12 21:42:58,68.2191,-135.0107,25.63,86,90,0.0,overcast clouds
251,Iracoubo,GF,2021-10-12 21:42:59,5.4802,-53.2011,81.79,79,72,10.56,broken clouds
252,Mount Isa,AU,2021-10-12 21:52:22,-20.7333,139.5,69.57,73,75,3.44,broken clouds
253,Miyako,JP,2021-10-12 21:42:59,39.6367,141.9525,59.95,85,100,6.46,light rain
254,Olafsvik,IS,2021-10-12 21:43:00,64.8945,-23.7142,46.53,98,100,4.29,overcast clouds
255,Luderitz,NA,2021-10-12 21:52:23,-26.6481,15.1594,62.51,69,48,7.05,scattered clouds
256,Pisco,PE,2021-10-12 21:52:23,-13.7,-76.2167,66.25,72,0,13.8,clear sky
257,Itarema,BR,2021-10-12 21:52:23,-2.9248,-39.9167,79.59,74,83,18.3,broken clouds
258,Locri,IT,2021-10-12 21:43:00,38.2414,16.2623,64.17,73,93,6.02,overcast clouds
259,Rach Gia,VN,2021-10-12 21:52:24,10.0167,105.0833,78.75,85,100,18.45,overcast clouds
260,Gondanglegi,ID,2021-10-12 21:43:01,-7.7479,112.0132,73.35,86,51,11.48,broken clouds
261,Deep River,CA,2021-10-12 21:43:02,46.1001,-77.4995,72.95,73,100,5.7,overcast clouds
262,Ryotsu,JP,2021-10-12 21:43:02,38.0833,138.4333,62.56,91,100,4.38,overcast clouds
263,Honiara,SB,2021-10-12 21:43:03,-9.4333,159.95,84.0,74,78,2.48,broken clouds
264,Beloha,MG,2021-10-12 21:43:03,-25.1667,45.05,65.37,75,0,13.44,clear sky
265,Bitung,ID,2021-10-12 21:43:04,1.4451,125.1824,76.05,82,100,7.9,overcast clouds
266,Pangnirtung,CA,2021-10-12 21:52:25,66.1451,-65.7125,28.4,100,90,5.75,mist
267,Guane,CU,2021-10-12 21:43:04,22.2025,-84.0875,81.72,69,52,1.77,broken clouds
268,Pozo Colorado,PY,2021-10-12 21:43:05,-23.4923,-58.7972,84.04,46,12,7.38,few clouds
269,Saint-Augustin,CA,2021-10-12 21:43:05,51.226,-58.6502,49.75,60,0,1.01,clear sky
270,Port Hedland,AU,2021-10-12 21:43:06,-20.3167,118.5667,68.05,68,4,6.91,clear sky
271,Kpandu,GH,2021-10-12 21:43:06,6.9954,0.2931,78.58,88,20,5.01,few clouds
272,Sept-Iles,CA,2021-10-12 21:41:48,50.2001,-66.3821,57.72,87,90,4.61,overcast clouds
273,Clyde River,CA,2021-10-12 21:52:25,70.4692,-68.5914,32.23,93,90,2.3,overcast clouds
274,Kill,IE,2021-10-12 21:43:07,52.1761,-7.335,53.82,89,92,4.7,overcast clouds
275,Vao,NC,2021-10-12 21:43:07,-22.6667,167.4833,69.04,93,100,19.8,overcast clouds
276,Marawi,PH,2021-10-12 21:52:26,7.9986,124.2928,66.65,79,64,3.76,broken clouds
277,Sao Filipe,CV,2021-10-12 21:52:26,14.8961,-24.4956,79.36,74,10,6.42,clear sky
278,Plastun,RU,2021-10-12 21:43:08,44.7561,136.2939,43.72,62,0,4.63,clear sky
279,Moyale,KE,2021-10-12 21:43:08,3.5167,39.0584,75.29,44,100,8.66,overcast clouds
280,College,US,2021-10-12 21:52:27,64.8569,-147.8028,35.8,73,75,6.91,broken clouds
281,Lipin Bor,RU,2021-10-12 21:43:08,60.2622,37.9763,43.2,84,100,7.0,overcast clouds
282,Vila,PT,2021-10-12 21:43:09,42.0304,-8.1588,56.93,66,3,4.05,clear sky
283,Melito Di Porto Salvo,IT,2021-10-12 21:43:09,37.9222,15.7714,64.54,72,90,5.75,overcast clouds
284,Stornoway,GB,2021-10-12 21:43:10,58.2093,-6.3865,53.92,100,90,8.05,overcast clouds
285,Jibuti,DJ,2021-10-12 21:43:10,11.5,42.5,83.62,61,99,8.23,overcast clouds
286,Jinchang,CN,2021-10-12 21:43:10,38.4953,102.1739,45.59,29,13,3.18,few clouds
287,Selfoss,IS,2021-10-12 21:43:11,63.9331,-20.9971,50.49,99,100,3.58,light rain
288,Vares,BA,2021-10-12 21:43:11,44.1644,18.3283,40.42,93,98,0.47,light rain
289,Huanren,CN,2021-10-12 21:43:12,41.2647,125.3667,44.8,87,0,0.67,clear sky
290,Constitucion,CL,2021-10-12 21:52:28,-35.3333,-72.4167,55.69,74,14,5.59,few clouds
291,Cherskiy,RU,2021-10-12 21:52:29,68.75,161.3,-2.13,98,82,3.02,broken clouds
292,Alofi,NU,2021-10-12 21:47:41,-19.0595,-169.9187,76.89,61,75,8.05,broken clouds
293,Old Town,CZ,2021-10-12 21:43:12,50.087,14.4202,44.1,89,40,1.99,scattered clouds
294,Thompson,CA,2021-10-12 21:52:29,55.7435,-97.8558,44.76,93,90,6.91,overcast clouds
295,Zhucheng,CN,2021-10-12 21:43:13,35.9947,119.3975,51.94,88,0,4.05,light rain
296,Teya,RU,2021-10-12 21:43:13,60.3778,92.6267,25.32,75,100,2.01,overcast clouds
297,Tarumovka,RU,2021-10-12 21:43:14,44.0761,46.5361,59.38,69,67,16.26,broken clouds
298,Geraldton,AU,2021-10-12 21:43:14,-28.7667,114.6,46.81,81,4,9.22,clear sky
299,Barcelos,PT,2021-10-12 21:43:14,41.5388,-8.6151,71.85,53,0,5.37,clear sky
300,La Ligua,CL,2021-10-12 21:39:14,-32.4524,-71.2311,60.58,66,100,7.02,overcast clouds
301,Karratha,AU,2021-10-12 21:43:15,-20.7377,116.8463,75.97,21,1,19.86,clear sky
302,Eureka,US,2021-10-12 21:47:41,40.8021,-124.1637,65.68,56,19,7.0,few clouds
303,Hamilton,US,2021-10-12 21:52:00,39.1834,-84.5333,77.76,68,75,1.99,broken clouds
304,Leiyang,CN,2021-10-12 21:43:15,26.4024,112.8591,63.05,66,100,9.69,overcast clouds
305,Dabhol,IN,2021-10-12 21:43:16,17.6,73.1667,75.87,90,91,4.97,overcast clouds
306,Ucluelet,CA,2021-10-12 21:48:06,48.9329,-125.5528,48.51,92,100,4.0,overcast clouds
307,Raudeberg,NO,2021-10-12 21:43:16,61.9875,5.1352,41.86,84,100,1.99,overcast clouds
308,Lorengau,PG,2021-10-12 21:52:31,-2.0226,147.2712,84.9,72,22,8.08,few clouds
309,Iskateley,RU,2021-10-12 21:43:17,67.6803,53.1512,39.72,87,100,12.73,overcast clouds
310,Thinadhoo,MV,2021-10-12 21:52:32,0.5333,72.9333,83.79,67,67,16.26,broken clouds
311,Moree,AU,2021-10-12 21:52:32,-29.4667,149.85,62.62,82,75,10.36,broken clouds
312,Necochea,AR,2021-10-12 21:43:17,-38.5473,-58.7368,64.04,88,25,13.4,scattered clouds
313,Salalah,OM,2021-10-12 21:43:18,17.0151,54.0924,77.09,69,0,4.61,clear sky
314,Ninotsminda,GE,2021-10-12 21:43:18,41.2646,43.5916,37.85,50,59,7.72,broken clouds
315,Gejiu,CN,2021-10-12 21:43:18,23.306,103.1635,46.44,93,73,6.02,broken clouds
316,Ossora,RU,2021-10-12 21:43:19,59.2353,163.0719,34.21,76,100,2.1,overcast clouds
317,Paita,PE,2021-10-12 21:43:19,-5.0892,-81.1144,72.16,78,32,18.72,scattered clouds
318,San Jose,US,2021-10-12 21:39:08,37.3394,-121.895,74.01,21,20,5.01,few clouds
319,Kodiak,US,2021-10-12 21:52:33,57.79,-152.4072,45.91,71,90,0.0,overcast clouds
320,Quballat,TN,2021-10-12 21:43:19,36.5418,9.6633,64.62,72,23,5.03,few clouds
321,Ontario,US,2021-10-12 21:42:49,34.0633,-117.6509,73.53,17,1,3.0,clear sky
322,Hofn,IS,2021-10-12 21:52:34,64.2539,-15.2082,43.23,91,100,9.26,heavy intensity rain
323,Sarakhs,IR,2021-10-12 21:43:20,36.5449,61.1577,44.74,42,0,4.61,clear sky
324,Marsh Harbour,BS,2021-10-12 21:43:21,26.5412,-77.0636,81.73,67,74,8.81,broken clouds
325,Lanigan,CA,2021-10-12 21:43:21,51.8501,-105.0344,46.29,39,80,4.83,broken clouds
326,Verkhnevilyuysk,RU,2021-10-12 21:43:21,63.4453,120.3167,21.06,74,99,8.79,overcast clouds
327,Eyl,SO,2021-10-12 21:43:22,7.9803,49.8164,79.95,75,32,13.6,scattered clouds
328,Acari,PE,2021-10-12 21:43:22,-15.4311,-74.6158,67.42,74,91,8.28,overcast clouds
329,Ilulissat,GL,2021-10-12 21:43:22,69.2167,-51.1,26.62,80,40,0.0,scattered clouds
330,Trairi,BR,2021-10-12 21:42:43,-3.2778,-39.2689,79.07,74,90,11.99,overcast clouds
331,Hami,CN,2021-10-12 21:52:35,42.8,93.45,48.29,38,3,7.63,clear sky
332,Magesti,RO,2021-10-12 21:43:23,47.0167,22.45,43.63,86,98,1.79,overcast clouds
333,Codajas,BR,2021-10-12 21:43:23,-3.8367,-62.0569,79.74,77,97,1.32,overcast clouds
334,Vasvar,HU,2021-10-12 21:43:24,47.0493,16.7995,43.61,85,71,6.06,broken clouds
335,Fort Nelson,CA,2021-10-12 21:52:36,58.8053,-122.7002,44.19,65,75,0.0,broken clouds
336,Cidreira,BR,2021-10-12 21:52:36,-30.1811,-50.2056,65.77,91,52,20.31,broken clouds
337,Westport,US,2021-10-12 21:42:21,41.1415,-73.3579,71.65,73,1,1.99,clear sky
338,Zomin,UZ,2021-10-12 21:43:24,39.9606,68.3958,44.73,45,0,2.37,clear sky
339,Bar-Le-Duc,FR,2021-10-12 21:43:25,48.75,5.1667,50.38,97,79,6.62,broken clouds
340,Wukari,NG,2021-10-12 21:43:25,7.85,9.7833,79.7,74,100,4.72,overcast clouds
341,Campbell River,CA,2021-10-12 21:41:11,50.0163,-125.2446,46.6,96,90,11.01,mist
342,Fort-Shevchenko,KZ,2021-10-12 21:43:25,44.5086,50.263,58.73,40,5,23.96,clear sky
343,Itacoatiara,BR,2021-10-12 21:43:26,-3.1431,-58.4442,88.34,46,49,1.83,scattered clouds
344,Roebourne,AU,2021-10-12 21:43:26,-20.7833,117.1333,75.58,20,1,20.24,clear sky
345,Mandalgovi,MN,2021-10-12 21:43:27,45.7625,106.2708,38.21,53,14,13.6,few clouds
346,Chamba,IN,2021-10-12 21:43:27,32.5667,76.1333,63.28,44,0,8.25,clear sky
347,Aykhal,RU,2021-10-12 21:52:37,66.0,111.5,13.69,94,100,15.12,overcast clouds
348,Lebu,CL,2021-10-12 21:52:38,-37.6167,-73.65,55.29,78,35,5.39,scattered clouds
349,Angoche,MZ,2021-10-12 21:43:27,-16.2325,39.9086,72.48,77,55,8.43,broken clouds
350,Kutum,SD,2021-10-12 21:43:28,14.2,24.6667,79.07,49,97,7.67,overcast clouds
351,Kungurtug,RU,2021-10-12 21:43:28,50.5994,97.5228,28.33,94,100,2.53,overcast clouds
352,Gaoua,BF,2021-10-12 21:43:29,10.2992,-3.2508,77.56,66,82,3.83,broken clouds
353,Dwarka,IN,2021-10-12 21:43:29,22.2394,68.9678,81.75,74,0,8.01,clear sky
354,Dali,CN,2021-10-12 21:43:29,25.7,100.1833,60.46,89,83,2.82,broken clouds
355,Cabo San Lucas,MX,2021-10-12 21:49:09,22.8909,-109.9124,84.51,73,100,11.01,overcast clouds
356,Great Yarmouth,GB,2021-10-12 21:43:30,52.6083,1.7305,51.94,69,75,10.02,broken clouds
357,Klaksvik,FO,2021-10-12 21:52:39,62.2266,-6.589,47.32,98,100,19.08,overcast clouds
358,Pontianak,ID,2021-10-12 21:52:39,-0.0333,109.3333,76.98,94,100,1.14,mist
359,Synya,RU,2021-10-12 21:43:30,65.3718,58.0387,36.59,96,100,8.9,overcast clouds
360,South Venice,US,2021-10-12 21:52:16,27.0531,-82.4243,89.06,66,75,11.5,broken clouds
361,Makhu,IN,2021-10-12 21:43:31,31.1033,74.9978,73.31,39,0,4.56,clear sky
362,Bairiki,KI,2021-10-12 21:43:31,1.3292,172.9752,84.2,70,20,6.91,few clouds
363,Gasa,PS,2021-10-12 21:43:32,31.5,34.4667,75.18,63,100,9.19,overcast clouds
364,Sisimiut,GL,2021-10-12 21:52:41,66.9395,-53.6735,33.46,72,26,8.3,scattered clouds
365,Soyo,AO,2021-10-12 21:43:32,-6.1349,12.3689,76.32,86,39,9.17,scattered clouds
366,Oliveira Dos Brejinhos,BR,2021-10-12 21:43:32,-12.3169,-42.8961,83.48,41,78,3.89,broken clouds
367,Taywarah,AF,2021-10-12 21:43:33,33.35,64.4167,37.4,14,0,3.58,clear sky
368,Broome,US,2021-10-12 21:43:33,42.2506,-75.833,70.38,69,1,4.0,clear sky
369,Huaiyuan,CN,2021-10-12 21:43:34,32.973,117.1995,56.34,75,11,8.1,light rain
370,Dingle,PH,2021-10-12 21:52:42,10.9995,122.6711,76.69,92,100,6.24,overcast clouds
371,Kieta,PG,2021-10-12 21:52:42,-6.2167,155.6333,82.99,73,79,4.56,light rain
372,Karnal,IN,2021-10-12 21:43:34,29.6833,76.9833,75.2,48,0,4.61,clear sky
373,Orlik,RU,2021-10-12 21:43:34,52.5178,99.825,28.83,79,81,2.93,broken clouds
374,Kucevo,RS,2021-10-12 21:43:35,44.4775,21.67,39.92,97,99,3.04,overcast clouds
375,Loukhi,RU,2021-10-12 21:43:35,66.0764,33.0381,41.9,86,100,9.19,overcast clouds
376,Meulaboh,ID,2021-10-12 21:43:36,4.1363,96.1285,77.04,86,100,2.66,overcast clouds
377,Terrace,CA,2021-10-12 21:43:12,54.5163,-128.6035,46.42,81,75,18.41,light intensity shower rain
378,Weihe,CN,2021-10-12 21:43:36,32.9952,105.3247,50.5,98,100,2.24,overcast clouds
379,Mitu,CO,2021-10-12 21:40:00,1.1983,-70.1733,77.27,84,92,1.59,overcast clouds
380,Caucaia,BR,2021-10-12 21:43:37,-3.7361,-38.6531,80.55,71,20,9.22,few clouds
381,Menongue,AO,2021-10-12 21:52:43,-14.6585,17.691,70.93,30,5,7.76,clear sky
382,Letterkenny,IE,2021-10-12 21:43:37,54.95,-7.7333,50.52,97,71,3.4,broken clouds
383,Chalakudi,IN,2021-10-12 21:43:37,10.304,76.3361,73.31,100,75,3.44,mist
384,Seoul,KR,2021-10-12 21:41:44,37.5683,126.9778,60.31,91,0,2.3,clear sky
385,Yerbogachen,RU,2021-10-12 21:43:38,61.2767,108.0108,15.55,88,21,3.15,few clouds
386,Pocri,PA,2021-10-12 21:43:38,8.2667,-80.55,84.02,85,79,4.41,broken clouds
387,Kaura Namoda,NG,2021-10-12 21:43:39,12.5898,6.5779,82.94,18,9,5.06,clear sky
388,Khandbari,NP,2021-10-12 21:43:39,27.3747,87.2039,67.59,63,0,4.74,clear sky
389,Vanimo,PG,2021-10-12 21:43:39,-2.6741,141.3028,80.1,87,28,4.5,scattered clouds
390,Methoni,GR,2021-10-12 21:43:40,36.8197,21.7049,63.21,71,73,14.97,broken clouds
391,Paranaiba,BR,2021-10-12 21:43:40,-19.6772,-51.1908,79.38,56,24,7.02,few clouds
392,Serdobsk,RU,2021-10-12 21:43:41,52.4586,44.2169,51.84,44,100,12.57,overcast clouds
393,Candido De Abreu,BR,2021-10-12 21:43:41,-24.5669,-51.3333,67.68,71,27,1.03,scattered clouds
394,Nizhniy Kuranakh,RU,2021-10-12 21:43:41,58.8353,125.4869,19.9,78,5,5.64,clear sky
395,Henties Bay,NA,2021-10-12 21:43:42,-22.116,14.2845,58.86,91,25,7.96,scattered clouds
396,Danville,US,2021-10-12 21:40:46,36.586,-79.395,75.87,68,20,3.44,few clouds
397,Mantua,IT,2021-10-12 21:43:42,45.1667,10.7833,56.7,85,24,1.99,few clouds
398,Wanning,CN,2021-10-12 21:52:45,18.8003,110.3967,70.74,93,100,26.71,heavy intensity rain
399,Mnogovershinnyy,RU,2021-10-12 21:52:46,53.9353,139.9242,37.38,86,100,5.35,overcast clouds
400,Hutchinson,US,2021-10-12 21:41:26,38.0608,-97.9298,69.03,72,90,11.5,overcast clouds
401,Chernyshevskiy,RU,2021-10-12 21:43:43,63.0128,112.4714,18.68,73,81,8.9,broken clouds
402,Mandera,KE,2021-10-12 21:52:46,3.9366,41.867,78.48,61,92,18.95,overcast clouds
403,Tahe,CN,2021-10-12 21:43:44,52.3333,124.7333,38.46,80,100,2.17,overcast clouds
404,San Andres,CO,2021-10-12 21:40:06,12.5847,-81.7006,87.82,66,20,10.36,few clouds
405,Innisfail,AU,2021-10-12 21:43:44,-17.5333,146.0333,78.87,61,33,0.4,scattered clouds
406,Iwaki,JP,2021-10-12 21:43:44,37.05,140.8833,64.24,96,100,8.28,overcast clouds
407,Ustrzyki Dolne,PL,2021-10-12 21:43:45,49.4304,22.5938,36.12,100,29,3.96,scattered clouds
408,Ugoofaaru,MV,2021-10-12 21:43:45,5.6667,73.0,82.9,76,98,18.07,overcast clouds
409,Bathurst,AU,2021-10-12 21:43:46,-33.4166,149.5806,53.96,77,100,1.99,overcast clouds
410,Saldanha,ZA,2021-10-12 21:52:48,-33.0117,17.9442,62.65,96,100,8.84,overcast clouds
411,Zomba,MW,2021-10-12 21:43:46,-15.386,35.3188,62.02,52,41,2.3,scattered clouds
412,Banamba,ML,2021-10-12 21:43:46,13.55,-7.45,80.91,58,90,6.11,overcast clouds
413,Jiuquan,CN,2021-10-12 21:52:48,39.7432,98.5174,42.66,27,83,2.93,broken clouds
414,Kenmare,IE,2021-10-12 21:43:47,51.8833,-9.5833,50.61,90,39,1.86,scattered clouds
415,Verkhoturye,RU,2021-10-12 21:43:47,58.8627,60.8054,40.89,85,99,6.51,overcast clouds
416,Padang,ID,2021-10-12 21:52:49,-0.9492,100.3543,73.45,76,36,3.67,scattered clouds
417,Dhidhdhoo,MV,2021-10-12 21:43:48,6.8833,73.1,82.45,77,78,18.16,broken clouds
418,Massakory,TD,2021-10-12 21:43:48,12.996,15.7293,88.11,23,23,9.95,few clouds
419,Gallup,US,2021-10-12 21:43:49,35.5281,-108.7426,43.56,44,90,5.01,overcast clouds
420,Akyab,MM,2021-10-12 21:43:49,20.15,92.9,79.72,87,47,4.05,scattered clouds
421,Kysyl-Syr,RU,2021-10-12 21:52:50,63.8986,122.7617,21.6,92,99,6.55,overcast clouds
422,Yongan,CN,2021-10-12 21:43:50,39.6957,113.6871,49.75,70,84,2.89,broken clouds
423,Torbay,CA,2021-10-12 21:52:50,47.6666,-52.7314,48.58,95,90,14.97,light intensity drizzle
424,Okha,RU,2021-10-12 21:52:51,53.5739,142.9478,45.45,77,100,11.99,overcast clouds
425,Aguadilla,PR,2021-10-12 21:43:50,18.4275,-67.1541,84.65,93,75,3.0,light rain
426,Rovinj,HR,2021-10-12 21:40:53,45.08,13.64,54.09,60,100,4.99,overcast clouds
427,Grand Gaube,MU,2021-10-12 21:43:51,-20.0064,57.6608,73.8,87,4,3.0,clear sky
428,Goderich,CA,2021-10-12 21:43:51,43.7501,-81.7165,70.92,77,23,13.8,few clouds
429,Birao,CF,2021-10-12 21:43:51,10.2849,22.7882,78.6,67,100,6.67,overcast clouds
430,Valdivia,CL,2021-10-12 21:43:52,-39.8142,-73.2459,59.09,69,1,4.99,clear sky
431,Swan River,CA,2021-10-12 21:43:52,52.1058,-101.2676,44.49,53,75,9.22,broken clouds
432,Verkhnyaya Inta,RU,2021-10-12 21:52:52,65.9811,60.3094,38.12,92,100,13.24,overcast clouds
433,Teguldet,RU,2021-10-12 21:43:53,57.3064,88.1667,27.27,58,100,2.68,overcast clouds
434,Foz Do Iguacu,BR,2021-10-12 21:43:53,-25.5478,-54.5881,88.72,50,20,3.44,few clouds
435,Gizo,SB,2021-10-12 21:52:52,-8.103,156.8419,83.98,72,90,8.39,overcast clouds
436,Kenai,US,2021-10-12 21:43:53,60.5544,-151.2583,49.03,69,1,12.66,clear sky
437,Cartersville,US,2021-10-12 21:43:54,34.1651,-84.7999,77.86,78,1,0.0,clear sky
438,Pyaozerskiy,RU,2021-10-12 21:43:54,65.8333,31.1667,41.54,88,100,9.6,overcast clouds
439,San Policarpo,PH,2021-10-12 21:43:55,12.1791,125.5072,79.88,81,100,7.96,overcast clouds
440,Porto Novo,BJ,2021-10-12 21:43:55,6.4965,2.6036,82.22,88,72,5.84,broken clouds
441,Almeria,ES,2021-10-12 21:43:55,37.1667,-2.3333,65.14,80,78,2.44,broken clouds
442,Intipuca,SV,2021-10-12 21:43:56,13.1969,-88.0544,84.79,69,25,4.83,scattered clouds
443,Amberley,US,2021-10-12 21:43:56,39.2048,-84.428,77.52,65,75,5.99,broken clouds
444,Luanda,AO,2021-10-12 21:43:57,-8.8368,13.2343,77.0,83,75,10.36,broken clouds
445,Petushki,RU,2021-10-12 21:43:57,55.9264,39.461,41.79,75,98,4.97,light rain
446,Porto Nacional,BR,2021-10-12 21:43:57,-10.7081,-48.4172,89.6,42,82,1.5,broken clouds
447,Seelze,DE,2021-10-12 21:43:58,52.4,9.6,47.1,93,20,6.91,few clouds
448,Anloga,GH,2021-10-12 21:52:54,5.7947,0.8973,80.82,86,19,12.33,few clouds
449,Hambantota,LK,2021-10-12 21:52:54,6.1241,81.1185,77.34,100,84,3.44,broken clouds
450,Praia Da Vitoria,PT,2021-10-12 21:43:59,38.7333,-27.0667,70.05,94,20,1.99,few clouds
451,Izumo,JP,2021-10-12 21:43:59,35.3667,132.7667,67.95,100,75,6.91,broken clouds
452,Murray Bridge,AU,2021-10-12 21:43:59,-35.1167,139.2667,54.12,76,94,9.04,light rain
453,Cockburn Town,TC,2021-10-12 21:39:58,21.4612,-71.1419,78.76,83,75,11.5,broken clouds
454,Goure,NE,2021-10-12 21:52:55,13.9835,10.2704,90.01,7,0,7.47,clear sky
455,Suhbaatar,MN,2021-10-12 21:44:00,50.2314,106.2078,37.62,98,93,2.17,overcast clouds
456,Kayerkan,RU,2021-10-12 21:44:00,69.3497,87.7602,21.79,95,100,3.85,overcast clouds
457,Yuzhno-Sukhokumsk,RU,2021-10-12 21:44:01,44.6581,45.6436,57.63,64,41,15.61,scattered clouds
458,Kargopol,RU,2021-10-12 21:44:01,61.5071,38.9456,41.11,87,100,5.14,overcast clouds
459,Suba,PH,2021-10-12 21:44:02,10.8438,121.0102,83.48,80,100,21.99,moderate rain
460,Bohicon,BJ,2021-10-12 21:44:02,7.1783,2.0667,76.6,92,63,6.02,broken clouds
461,Ixtapa,MX,2021-10-12 21:52:56,20.7,-105.2,88.23,74,100,3.0,overcast clouds
462,Kostomuksha,RU,2021-10-12 21:44:03,64.571,30.5767,38.86,94,74,5.75,broken clouds
463,Mangrol,IN,2021-10-12 21:44:04,21.1167,70.1167,81.81,76,3,8.25,clear sky
464,Qaqortoq,GL,2021-10-12 21:44:04,60.7167,-46.0333,36.1,68,4,4.97,clear sky
465,Antalaha,MG,2021-10-12 21:44:04,-14.9003,50.2788,71.46,90,100,6.89,light rain
466,Macon,US,2021-10-12 21:44:05,39.8667,-88.9668,75.74,43,1,8.05,clear sky
467,Aleksandrovka,UA,2021-10-12 21:44:05,46.8383,32.7612,52.88,77,77,3.0,broken clouds
468,Moron,AR,2021-10-12 21:43:22,-34.6534,-58.6198,69.94,77,89,3.0,overcast clouds
469,Manati,PR,2021-10-12 21:44:05,18.4275,-66.4921,85.71,94,93,8.61,overcast clouds
470,Camacha,PT,2021-10-12 21:44:06,33.0833,-16.3333,65.62,68,20,4.61,few clouds
471,Xanxere,BR,2021-10-12 21:44:06,-26.8769,-52.4042,75.31,83,22,2.93,few clouds
472,Southbridge,US,2021-10-12 21:52:58,42.0751,-72.0334,70.02,86,8,2.37,clear sky
473,Vila Velha,BR,2021-10-12 21:52:58,-20.3297,-40.2925,71.55,83,75,4.61,broken clouds
474,Sakakah,SA,2021-10-12 21:44:07,29.9697,40.2064,81.97,16,80,15.75,broken clouds
475,Gawler,AU,2021-10-12 21:44:07,-34.6,138.7333,54.91,92,95,11.16,light rain
476,Shakawe,BW,2021-10-12 21:44:08,-18.3667,21.85,67.59,31,0,5.82,clear sky
477,Sao Joao Da Barra,BR,2021-10-12 21:52:59,-21.6403,-41.0511,68.09,87,98,12.41,overcast clouds
478,La Romana,DO,2021-10-12 21:44:08,18.4273,-68.9728,84.56,84,75,11.5,broken clouds
479,Cairns,AU,2021-10-12 21:44:09,-16.9167,145.7667,76.95,73,4,0.0,clear sky
480,Turukhansk,RU,2021-10-12 21:44:09,65.8167,87.9833,22.12,82,55,1.41,broken clouds
481,Tooele,US,2021-10-12 21:44:09,40.5308,-112.2983,46.15,75,90,16.11,overcast clouds
482,Buala,SB,2021-10-12 21:53:00,-8.145,159.5921,83.88,72,99,5.55,overcast clouds
483,Beian,NO,2021-10-12 21:44:10,63.6559,9.5683,44.69,81,75,17.27,broken clouds
484,Kita,ML,2021-10-12 21:44:10,13.0349,-9.4895,74.39,84,95,4.05,overcast clouds
485,Aswan,EG,2021-10-12 21:44:10,24.0934,32.907,90.7,23,0,4.61,clear sky
486,Biak,ID,2021-10-12 21:44:11,-0.9131,122.8766,77.52,76,96,3.33,overcast clouds
487,Kharian,PK,2021-10-12 21:44:11,32.8149,73.8636,74.55,43,0,4.21,clear sky
488,Paredon,MX,2021-10-12 21:44:11,16.0333,-93.8667,85.75,71,11,6.11,few clouds
489,Mecca,SA,2021-10-12 21:44:12,21.4267,39.8261,86.34,29,0,4.92,clear sky
490,Tazmalt,DZ,2021-10-12 21:44:12,36.3868,4.3989,61.5,81,99,3.8,overcast clouds
491,San Julian,MX,2021-10-12 21:44:12,21.0167,-102.1667,75.61,42,36,9.8,scattered clouds
492,Japura,ID,2021-10-12 21:44:13,-0.3167,102.35,74.55,96,100,2.21,overcast clouds
493,Eidfjord,NO,2021-10-12 21:44:13,60.4675,7.0719,46.44,71,100,6.02,overcast clouds
494,Pervomayskiy,RU,2021-10-12 21:44:14,53.2485,40.2871,46.13,57,100,9.69,overcast clouds
495,Phetchaburi,TH,2021-10-12 21:44:14,12.9667,99.5833,75.69,92,100,2.44,overcast clouds
496,Noumea,NC,2021-10-12 21:39:40,-22.2763,166.4572,67.98,95,100,9.75,moderate rain
497,Dergachi,RU,2021-10-12 21:44:14,51.2328,48.7659,46.83,50,51,9.06,broken clouds
498,High Rock,BS,2021-10-12 21:44:15,26.6208,-78.2833,75.22,68,9,8.68,clear sky
499,Onega,RU,2021-10-12 21:44:15,63.9061,38.1404,39.99,85,20,9.71,few clouds
500,Hue,VN,2021-10-12 21:44:15,16.4667,107.6,75.31,83,75,11.5,broken clouds
501,Diamantino,BR,2021-10-12 21:44:16,-14.4086,-56.4461,84.99,58,84,1.1,broken clouds
502,Touros,BR,2021-10-12 21:53:02,-5.1989,-35.4608,79.7,73,28,13.18,scattered clouds
503,Guaymas,MX,2021-10-12 21:44:16,27.9333,-110.9,87.89,41,1,16.11,clear sky
504,Diffa,NE,2021-10-12 21:44:17,13.3154,12.6113,88.25,12,6,6.04,clear sky
505,Praia,CV,2021-10-12 21:44:17,14.9215,-23.5087,79.34,73,20,12.66,few clouds
506,Fortuna Foothills,US,2021-10-12 21:44:18,32.6578,-114.4119,71.69,16,1,3.0,clear sky
507,Konongo,GH,2021-10-12 21:44:18,6.6167,-1.2167,73.53,97,44,1.83,light rain
508,Malanje,AO,2021-10-12 21:44:18,-9.5402,16.341,66.13,93,85,2.91,overcast clouds
509,Buraydah,SA,2021-10-12 21:53:03,26.326,43.975,81.05,16,0,10.85,clear sky
510,Sheridan,US,2021-10-12 21:44:19,44.8333,-106.9173,35.31,85,90,3.0,light snow
511,Gracac,HR,2021-10-12 21:44:19,44.3006,15.8547,48.38,85,82,7.38,broken clouds
512,Nouadhibou,MR,2021-10-12 21:53:04,20.931,-17.0347,67.98,88,0,16.11,clear sky
513,Oistins,BB,2021-10-12 21:44:20,13.0667,-59.5333,82.49,78,75,16.11,broken clouds
514,Nebug,RU,2021-10-12 21:44:21,44.1714,39.0036,63.41,70,0,5.61,clear sky
515,Sao Francisco De Assis,BR,2021-10-12 21:44:21,-29.5503,-55.1311,67.66,73,0,3.71,clear sky
516,Nhulunbuy,AU,2021-10-12 21:44:21,-12.2333,136.7667,79.41,83,12,0.0,few clouds
517,Russell,US,2021-10-12 21:44:22,32.3502,-85.1999,83.48,62,20,5.75,few clouds
518,Pirenopolis,BR,2021-10-12 21:44:22,-15.8525,-48.9592,82.89,58,94,2.89,overcast clouds
519,Rock Sound,BS,2021-10-12 21:44:22,24.9,-76.2,82.18,74,100,10.78,overcast clouds
520,Mossendjo,CG,2021-10-12 21:44:23,-2.9506,12.7261,70.74,99,75,2.39,moderate rain
521,Urumqi,CN,2021-10-12 21:44:23,43.801,87.6005,36.55,87,75,8.95,broken clouds
522,San Antonio Sacatepequez,GT,2021-10-12 21:44:23,14.9667,-91.7333,77.0,66,83,2.06,broken clouds
523,Codrington,AU,2021-10-12 21:53:05,-38.2667,141.9667,56.26,75,100,19.19,overcast clouds
524,Arlit,NE,2021-10-12 21:44:24,18.7369,7.3853,85.75,9,10,7.02,clear sky
525,Isla Mujeres,MX,2021-10-12 21:44:24,21.2311,-86.731,87.17,69,5,9.53,clear sky
526,Gonc,HU,2021-10-12 21:44:24,48.4667,21.2833,46.15,71,100,3.15,overcast clouds
527,Phuket,TH,2021-10-12 21:44:25,8.0,98.25,85.08,83,20,11.5,few clouds
528,Srednekolymsk,RU,2021-10-12 21:44:25,67.45,153.6833,12.58,92,100,1.12,overcast clouds
529,Manzhouli,CN,2021-10-12 21:44:26,49.6,117.4333,43.57,49,100,4.43,overcast clouds
530,Srivardhan,IN,2021-10-12 21:44:26,18.0333,73.0167,78.55,85,74,5.66,broken clouds
531,Pareora,NZ,2021-10-12 21:44:26,-44.4871,171.2132,49.17,44,100,24.81,overcast clouds
532,Waingapu,ID,2021-10-12 21:44:27,-9.6567,120.2641,76.75,59,52,2.86,broken clouds
533,Gravdal,NO,2021-10-12 21:44:27,68.1214,13.5031,43.36,64,98,10.76,overcast clouds
534,Esperance,AU,2021-10-12 21:44:27,-33.8667,121.9,53.44,71,83,22.59,broken clouds
535,Taiping,MY,2021-10-12 21:44:28,4.85,100.7333,79.0,88,100,1.41,overcast clouds
536,Pierre,US,2021-10-12 21:40:27,44.3683,-100.351,56.28,70,90,3.0,overcast clouds
537,Rocha,UY,2021-10-12 21:53:07,-34.4833,-54.3333,61.5,95,68,6.85,broken clouds
538,Snezhnogorsk,RU,2021-10-12 21:44:28,69.1933,33.2531,37.18,91,99,13.76,overcast clouds
539,Rolla,US,2021-10-12 21:44:29,37.9514,-91.7713,78.51,34,1,1.01,clear sky
540,Palu,ID,2021-10-12 21:44:29,-0.8917,119.8707,76.71,95,96,3.02,overcast clouds
541,Krasnyy Oktyabr,RU,2021-10-12 21:44:29,56.1167,38.8833,42.35,74,99,5.19,overcast clouds
542,Umm Lajj,SA,2021-10-12 21:44:30,25.0213,37.2685,89.55,35,0,5.79,clear sky
543,Harper,LR,2021-10-12 21:53:08,4.375,-7.7169,77.54,89,59,7.23,broken clouds
544,Mikkeli,FI,2021-10-12 21:44:30,61.6886,27.2723,43.14,100,99,0.0,fog
545,Gat,IL,2021-10-12 21:44:31,31.61,34.7642,80.4,58,100,9.06,overcast clouds
546,Carutapera,BR,2021-10-12 21:44:31,-1.195,-46.02,80.42,73,6,11.74,clear sky
547,Myatlevo,RU,2021-10-12 21:44:31,54.8969,35.6762,48.15,72,100,5.77,overcast clouds
548,Arona,ES,2021-10-12 21:44:32,28.0996,-16.681,66.7,65,75,10.36,broken clouds
549,Denpasar,ID,2021-10-12 21:44:32,-8.65,115.2167,74.71,88,20,1.14,few clouds
550,Bacolod,PH,2021-10-12 21:40:15,10.6667,122.95,78.35,88,99,9.08,overcast clouds
551,Jalu,LY,2021-10-12 21:44:33,29.0331,21.5482,72.27,59,94,11.43,overcast clouds
552,Valdosta,US,2021-10-12 21:44:33,30.8327,-83.2785,84.11,62,1,8.05,clear sky
553,Laguna,US,2021-10-12 21:43:10,38.421,-121.4238,73.06,18,1,8.01,clear sky
554,Lesnoy,RU,2021-10-12 21:44:33,57.6198,63.0784,41.65,86,100,6.04,overcast clouds
555,Cururupu,BR,2021-10-12 21:44:34,-1.8283,-44.8683,78.55,77,7,5.66,clear sky
556,Svolvaer,NO,2021-10-12 21:44:34,68.2342,14.5683,43.5,73,99,6.53,overcast clouds
557,Brae,GB,2021-10-12 21:44:35,60.3964,-1.353,48.11,80,100,10.02,overcast clouds
558,Kruisfontein,ZA,2021-10-12 21:50:31,-34.0033,24.7314,57.88,85,100,0.29,overcast clouds
559,Mwinilunga,ZM,2021-10-12 21:44:35,-11.7358,24.4293,66.45,43,23,4.63,few clouds
560,Flinders,AU,2021-10-12 21:53:11,-34.5833,150.8552,59.2,82,100,6.42,overcast clouds
561,Kozhva,RU,2021-10-12 21:44:35,65.1073,57.0459,37.22,92,100,7.7,overcast clouds
562,Kirovsk,UA,2021-10-12 21:44:36,48.6375,38.6428,50.07,90,35,5.95,scattered clouds
563,Tiznit,MA,2021-10-12 21:44:36,29.5833,-9.5,60.84,88,7,2.06,clear sky
564,Kapuskasing,CA,2021-10-12 21:44:37,49.4169,-82.4331,59.09,94,90,5.75,heavy intensity rain
565,Kaduqli,SD,2021-10-12 21:44:37,11.0167,29.7167,72.55,93,100,4.56,overcast clouds
566,Husavik,IS,2021-10-12 21:53:12,66.0449,-17.3389,33.71,95,100,6.06,overcast clouds
567,Qax,AZ,2021-10-12 21:44:38,41.4225,46.9242,54.79,67,80,2.59,broken clouds
568,Verkhnetulomskiy,RU,2021-10-12 21:44:38,68.6073,31.7962,37.53,94,100,5.95,overcast clouds
569,Dosso,NE,2021-10-12 21:44:39,13.049,3.1937,88.9,24,32,7.31,scattered clouds
570,Yzeure,FR,2021-10-12 21:44:39,46.5644,3.355,54.1,80,46,2.35,scattered clouds
571,Kalabo,ZM,2021-10-12 21:44:40,-14.97,22.6814,73.89,25,0,8.77,clear sky
572,York,US,2021-10-12 21:44:40,40.1254,-77.0,67.44,85,94,2.48,overcast clouds
573,Rameshki,RU,2021-10-12 21:44:40,57.3439,36.0453,43.47,80,100,4.92,overcast clouds
574,Vilcun,CL,2021-10-12 21:44:41,-38.65,-72.2333,59.74,67,15,6.85,few clouds
575,Kariba,ZW,2021-10-12 21:44:41,-16.5167,28.8,70.68,50,0,4.03,clear sky
576,Coatzintla,MX,2021-10-12 21:44:42,20.4833,-97.45,93.78,62,40,6.91,scattered clouds
